[
    {
        "country": "Papua New Guinea",
        "altitude": 5282,
        "dst": "U",
        "city": "Goroka",
        "airportId": 1,
        "timezone": 10,
        "latitude": -6.081689834590001,
        "source": "OurAirports",
        "type": "airport",
        "tzDatabaseTimezone": "Pacific/Port_Moresby",
        "iata": "GKA",
        "name": "Goroka Airport",
        "icao": "AYGA",
        "longitude": 145.391998291
    },
    {
        "country": "Papua New Guinea",
        "altitude": 20,
        "dst": "U",
        "city": "Madang",
        "airportId": 2,
        "timezone": 10,
        "latitude": -5.20707988739,
        "source": "OurAirports",
        "type": "airport",
        "tzDatabaseTimezone": "Pacific/Port_Moresby",
        "iata": "MAG",
        "name": "Madang Airport",
        "icao": "AYMD",
        "longitude": 145.789001465
    },
    {
        "country": "Papua New Guinea",
        "altitude": 5388,
        "dst": "U",
        "city": "Mount Hagen",
        "airportId": 3,
        "timezone": 10,
        "latitude": -5.826789855957031,
        "source": "OurAirports",
        "type": "airport",
        "tzDatabaseTimezone": "Pacific/Port_Moresby",
        "iata": "HGU",
        "name": "Mount Hagen Kagamuga Airport",
        "icao": "AYMH",
        "longitude": 144.29600524902344
    },
    {
        "country": "Papua New Guinea",
        "altitude": 239,
        "dst": "U",
        "city": "Nadzab",
        "airportId": 4,
        "timezone": 10,
        "latitude": -6.569803,
        "source": "OurAirports",
        "type": "airport",
        "tzDatabaseTimezone": "Pacific/Port_Moresby",
        "iata": "LAE",
        "name": "Nadzab Airport",
        "icao": "AYNZ",
        "longitude": 146.725977
    },
    {
        "country": "Papua New Guinea",
        "altitude": 146,
        "dst": "U",
        "city": "Port Moresby",
        "airportId": 5,
        "timezone": 10,
        "latitude": -9.443380355834961,
        "source": "OurAirports",
        "type": "airport",
        "tzDatabaseTimezone": "Pacific/Port_Moresby",
        "iata": "POM",
        "name": "Port Moresby Jacksons International Airport",
        "icao": "AYPY",
        "longitude": 147.22000122070312
    },
    {
        "country": "Papua New Guinea",
        "altitude": 19,
        "dst": "U",
        "city": "Wewak",
        "airportId": 6,
        "timezone": 10,
        "latitude": -3.58383011818,
        "source": "OurAirports",
        "type": "airport",
        "tzDatabaseTimezone": "Pacific/Port_Moresby",
        "iata": "WWK",
        "name": "Wewak International Airport",
        "icao": "AYWK",
        "longitude": 143.669006348
    },
    {
        "country": "Greenland",
        "altitude": 112,
        "dst": "E",
        "city": "Narssarssuaq",
        "airportId": 7,
        "timezone": -3,
        "latitude": 61.1604995728,
        "source": "OurAirports",
        "type": "airport",
        "tzDatabaseTimezone": "America/Godthab",
        "iata": "UAK",
        "name": "Narsarsuaq Airport",
        "icao": "BGBW",
        "longitude": -45.4259986877
    },
    {
        "country": "Greenland",
        "altitude": 283,
        "dst": "E",
        "city": "Godthaab",
        "airportId": 8,
        "timezone": -3,
        "latitude": 64.19090271,
        "source": "OurAirports",
        "type": "airport",
        "tzDatabaseTimezone": "America/Godthab",
        "iata": "GOH",
        "name": "Godthaab / Nuuk Airport",
        "icao": "BGGH",
        "longitude": -51.6781005859
    },
    {
        "country": "Greenland",
        "altitude": 165,
        "dst": "E",
        "city": "Sondrestrom",
        "airportId": 9,
        "timezone": -3,
        "latitude": 67.0122218992,
        "source": "OurAirports",
        "type": "airport",
        "tzDatabaseTimezone": "America/Godthab",
        "iata": "SFJ",
        "name": "Kangerlussuaq Airport",
        "icao": "BGSF",
        "longitude": -50.7116031647
    },
    {
        "country": "Greenland",
        "altitude": 251,
        "dst": "E",
        "city": "Thule",
        "airportId": 10,
        "timezone": -4,
        "latitude": 76.5311965942,
        "source": "OurAirports",
        "type": "airport",
        "tzDatabaseTimezone": "America/Thule",
        "iata": "THU",
        "name": "Thule Air Base",
        "icao": "BGTL",
        "longitude": -68.7032012939
    },
    {
        "country": "Iceland",
        "altitude": 6,
        "dst": "N",
        "city": "Akureyri",
        "airportId": 11,
        "timezone": 0,
        "latitude": 65.66000366210938,
        "source": "OurAirports",
        "type": "airport",
        "tzDatabaseTimezone": "Atlantic/Reykjavik",
        "iata": "AEY",
        "name": "Akureyri Airport",
        "icao": "BIAR",
        "longitude": -18.07270050048828
    },
    {
        "country": "Iceland",
        "altitude": 76,
        "dst": "N",
        "city": "Egilsstadir",
        "airportId": 12,
        "timezone": 0,
        "latitude": 65.2833023071289,
        "source": "OurAirports",
        "type": "airport",
        "tzDatabaseTimezone": "Atlantic/Reykjavik",
        "iata": "EGS",
        "name": "Egilsstaðir Airport",
        "icao": "BIEG",
        "longitude": -14.401399612426758
    },
    {
        "country": "Iceland",
        "altitude": 24,
        "dst": "N",
        "city": "Hofn",
        "airportId": 13,
        "timezone": 0,
        "latitude": 64.295601,
        "source": "OurAirports",
        "type": "airport",
        "tzDatabaseTimezone": "Atlantic/Reykjavik",
        "iata": "HFN",
        "name": "Hornafjörður Airport",
        "icao": "BIHN",
        "longitude": -15.2272
    },
    {
        "country": "Iceland",
        "altitude": 48,
        "dst": "N",
        "city": "Husavik",
        "airportId": 14,
        "timezone": 0,
        "latitude": 65.952301,
        "source": "OurAirports",
        "type": "airport",
        "tzDatabaseTimezone": "Atlantic/Reykjavik",
        "iata": "HZK",
        "name": "Húsavík Airport",
        "icao": "BIHU",
        "longitude": -17.426001
    },
    {
        "country": "Iceland",
        "altitude": 8,
        "dst": "N",
        "city": "Isafjordur",
        "airportId": 15,
        "timezone": 0,
        "latitude": 66.05809783935547,
        "source": "OurAirports",
        "type": "airport",
        "tzDatabaseTimezone": "Atlantic/Reykjavik",
        "iata": "IFJ",
        "name": "Ísafjörður Airport",
        "icao": "BIIS",
        "longitude": -23.135299682617188
    },
    {
        "country": "Iceland",
        "altitude": 171,
        "dst": "N",
        "city": "Keflavik",
        "airportId": 16,
        "timezone": 0,
        "latitude": 63.985000610352,
        "source": "OurAirports",
        "type": "airport",
        "tzDatabaseTimezone": "Atlantic/Reykjavik",
        "iata": "KEF",
        "name": "Keflavik International Airport",
        "icao": "BIKF",
        "longitude": -22.605600357056
    },
    {
        "country": "Iceland",
        "altitude": 11,
        "dst": "N",
        "city": "Patreksfjordur",
        "airportId": 17,
        "timezone": 0,
        "latitude": 65.555801,
        "source": "OurAirports",
        "type": "airport",
        "tzDatabaseTimezone": "Atlantic/Reykjavik",
        "iata": "PFJ",
        "name": "Patreksfjörður Airport",
        "icao": "BIPA",
        "longitude": -23.965
    },
    {
        "country": "Iceland",
        "altitude": 48,
        "dst": "N",
        "city": "Reykjavik",
        "airportId": 18,
        "timezone": 0,
        "latitude": 64.1299972534,
        "source": "OurAirports",
        "type": "airport",
        "tzDatabaseTimezone": "Atlantic/Reykjavik",
        "iata": "RKV",
        "name": "Reykjavik Airport",
        "icao": "BIRK",
        "longitude": -21.9405994415
    },
    {
        "country": "Iceland",
        "altitude": 10,
        "dst": "N",
        "city": "Siglufjordur",
        "airportId": 19,
        "timezone": 0,
        "latitude": 66.133301,
        "source": "OurAirports",
        "type": "airport",
        "tzDatabaseTimezone": "Atlantic/Reykjavik",
        "iata": "SIJ",
        "name": "Siglufjörður Airport",
        "icao": "BISI",
        "longitude": -18.9167
    },
    {
        "country": "Iceland",
        "altitude": 326,
        "dst": "N",
        "city": "Vestmannaeyjar",
        "airportId": 20,
        "timezone": 0,
        "latitude": 63.42430114746094,
        "source": "OurAirports",
        "type": "airport",
        "tzDatabaseTimezone": "Atlantic/Reykjavik",
        "iata": "VEY",
        "name": "Vestmannaeyjar Airport",
        "icao": "BIVM",
        "longitude": -20.278900146484375
    },
    {
        "country": "Canada",
        "altitude": 630,
        "dst": "A",
        "city": "Sault Sainte Marie",
        "airportId": 21,
        "timezone": -5,
        "latitude": 46.48500061035156,
        "source": "OurAirports",
        "type": "airport",
        "tzDatabaseTimezone": "America/Toronto",
        "iata": "YAM",
        "name": "Sault Ste Marie Airport",
        "icao": "CYAM",
        "longitude": -84.5093994140625
    },
    {
        "country": "Canada",
        "altitude": 760,
        "dst": "A",
        "city": "Winnipeg",
        "airportId": 22,
        "timezone": -6,
        "latitude": 50.0564002991,
        "source": "OurAirports",
        "type": "airport",
        "tzDatabaseTimezone": "America/Winnipeg",
        "iata": null,
        "name": "Winnipeg / St. Andrews Airport",
        "icao": "CYAV",
        "longitude": -97.03250122070001
    },
    {
        "country": "Canada",
        "altitude": 144,
        "dst": "A",
        "city": "Halifax",
        "airportId": 23,
        "timezone": -4,
        "latitude": 44.639702,
        "source": "OurAirports",
        "type": "airport",
        "tzDatabaseTimezone": "America/Halifax",
        "iata": null,
        "name": "Halifax / CFB Shearwater Heliport",
        "icao": "CYAW",
        "longitude": -63.499401
    },
    {
        "country": "Canada",
        "altitude": 108,
        "dst": "A",
        "city": "St. Anthony",
        "airportId": 24,
        "timezone": -3.5,
        "latitude": 51.3918991089,
        "source": "OurAirports",
        "type": "airport",
        "tzDatabaseTimezone": "America/St_Johns",
        "iata": "YAY",
        "name": "St. Anthony Airport",
        "icao": "CYAY",
        "longitude": -56.083099365200006
    },
    {
        "country": "Canada",
        "altitude": 80,
        "dst": "A",
        "city": "Tofino",
        "airportId": 25,
        "timezone": -8,
        "latitude": 49.079833,
        "source": "OurAirports",
        "type": "airport",
        "tzDatabaseTimezone": "America/Vancouver",
        "iata": "YAZ",
        "name": "Tofino / Long Beach Airport",
        "icao": "CYAZ",
        "longitude": -125.775583
    },
    {
        "country": "Canada",
        "altitude": 56,
        "dst": "A",
        "city": "Pelly Bay",
        "airportId": 26,
        "timezone": -7,
        "latitude": 68.534401,
        "source": "OurAirports",
        "type": "airport",
        "tzDatabaseTimezone": "America/Edmonton",
        "iata": "YBB",
        "name": "Kugaaruk Airport",
        "icao": "CYBB",
        "longitude": -89.808098
    },
    {
        "country": "Canada",
        "altitude": 71,
        "dst": "A",
        "city": "Baie Comeau",
        "airportId": 27,
        "timezone": -5,
        "latitude": 49.13249969482422,
        "source": "OurAirports",
        "type": "airport",
        "tzDatabaseTimezone": "America/Toronto",
        "iata": "YBC",
        "name": "Baie Comeau Airport",
        "icao": "CYBC",
        "longitude": -68.20439910888672
    },
    {
        "country": "Canada",
        "altitude": 522,
        "dst": "A",
        "city": "Bagotville",
        "airportId": 28,
        "timezone": -5,
        "latitude": 48.33060073852539,
        "source": "OurAirports",
        "type": "airport",
        "tzDatabaseTimezone": "America/Toronto",
        "iata": "YBG",
        "name": "CFB Bagotville",
        "icao": "CYBG",
        "longitude": -70.99639892578125
    },
    {
        "country": "Canada",
        "altitude": 59,
        "dst": "A",
        "city": "Baker Lake",
        "airportId": 29,
        "timezone": -6,
        "latitude": 64.29889678960001,
        "source": "OurAirports",
        "type": "airport",
        "tzDatabaseTimezone": "America/Winnipeg",
        "iata": "YBK",
        "name": "Baker Lake Airport",
        "icao": "CYBK",
        "longitude": -96.077796936
    },
    {
        "country": "Canada",
        "altitude": 346,
        "dst": "A",
        "city": "Campbell River",
        "airportId": 30,
        "timezone": -8,
        "latitude": 49.950801849365234,
        "source": "OurAirports",
        "type": "airport",
        "tzDatabaseTimezone": "America/Vancouver",
        "iata": "YBL",
        "name": "Campbell River Airport",
        "icao": "CYBL",
        "longitude": -125.27100372314453
    },
    {
        "country": "Canada",
        "altitude": 1343,
        "dst": "A",
        "city": "Brandon",
        "airportId": 31,
        "timezone": -6,
        "latitude": 49.91,
        "source": "OurAirports",
        "type": "airport",
        "tzDatabaseTimezone": "America/Winnipeg",
        "iata": "YBR",
        "name": "Brandon Municipal Airport",
        "icao": "CYBR",
        "longitude": -99.951897
    },
    {
        "country": "Canada",
        "altitude": 90,
        "dst": "A",
        "city": "Cambridge Bay",
        "airportId": 32,
        "timezone": -7,
        "latitude": 69.1081008911,
        "source": "OurAirports",
        "type": "airport",
        "tzDatabaseTimezone": "America/Edmonton",
        "iata": "YCB",
        "name": "Cambridge Bay Airport",
        "icao": "CYCB",
        "longitude": -105.138000488
    },
    {
        "country": "Canada",
        "altitude": 92,
        "dst": "A",
        "city": "Nanaimo",
        "airportId": 33,
        "timezone": -8,
        "latitude": 49.054970224899996,
        "source": "OurAirports",
        "type": "airport",
        "tzDatabaseTimezone": "America/Vancouver",
        "iata": "YCD",
        "name": "Nanaimo Airport",
        "icao": "CYCD",
        "longitude": -123.869862556
    },
    {
        "country": "Canada",
        "altitude": 1624,
        "dst": "A",
        "city": "Castlegar",
        "airportId": 34,
        "timezone": -8,
        "latitude": 49.2963981628,
        "source": "OurAirports",
        "type": "airport",
        "tzDatabaseTimezone": "America/Vancouver",
        "iata": "YCG",
        "name": "Castlegar/West Kootenay Regional Airport",
        "icao": "CYCG",
        "longitude": -117.632003784
    },
    {
        "country": "Canada",
        "altitude": 108,
        "dst": "A",
        "city": "Chatham",
        "airportId": 35,
        "timezone": -4,
        "latitude": 47.007801,
        "source": "OurAirports",
        "type": "airport",
        "tzDatabaseTimezone": "America/Halifax",
        "iata": "YCH",
        "name": "Miramichi Airport",
        "icao": "CYCH",
        "longitude": -65.449203
    },
    {
        "country": "Canada",
        "altitude": 132,
        "dst": "A",
        "city": "Charlo",
        "airportId": 36,
        "timezone": -4,
        "latitude": 47.990799,
        "source": "OurAirports",
        "type": "airport",
        "tzDatabaseTimezone": "America/Halifax",
        "iata": "YCL",
        "name": "Charlo Airport",
        "icao": "CYCL",
        "longitude": -66.330299
    },
    {
        "country": "Canada",
        "altitude": 74,
        "dst": "A",
        "city": "Coppermine",
        "airportId": 37,
        "timezone": -7,
        "latitude": 67.816704,
        "source": "OurAirports",
        "type": "airport",
        "tzDatabaseTimezone": "America/Edmonton",
        "iata": "YCO",
        "name": "Kugluktuk Airport",
        "icao": "CYCO",
        "longitude": -115.143997
    },
    {
        "country": "Canada",
        "altitude": 2595,
        "dst": "A",
        "city": "Coronation",
        "airportId": 38,
        "timezone": -7,
        "latitude": 52.0750007629,
        "source": "OurAirports",
        "type": "airport",
        "tzDatabaseTimezone": "America/Edmonton",
        "iata": "YCT",
        "name": "Coronation Airport",
        "icao": "CYCT",
        "longitude": -111.444999695
    },
    {
        "country": "Canada",
        "altitude": 32,
        "dst": "A",
        "city": "Chilliwack",
        "airportId": 39,
        "timezone": -8,
        "latitude": 49.1528015137,
        "source": "OurAirports",
        "type": "airport",
        "tzDatabaseTimezone": "America/Vancouver",
        "iata": "YCW",
        "name": "Chilliwack Airport",
        "icao": "CYCW",
        "longitude": -121.939002991
    },
    {
        "country": "Canada",
        "altitude": 87,
        "dst": "A",
        "city": "Clyde River",
        "airportId": 40,
        "timezone": -5,
        "latitude": 70.4860992432,
        "source": "OurAirports",
        "type": "airport",
        "tzDatabaseTimezone": "America/Toronto",
        "iata": "YCY",
        "name": "Clyde River Airport",
        "icao": "CYCY",
        "longitude": -68.5167007446
    },
    {
        "country": "Canada",
        "altitude": 210,
        "dst": "A",
        "city": "Coral Harbour",
        "airportId": 41,
        "timezone": -5,
        "latitude": 64.1932983398,
        "source": "OurAirports",
        "type": "airport",
        "tzDatabaseTimezone": "America/Coral_Harbour",
        "iata": "YZS",
        "name": "Coral Harbour Airport",
        "icao": "CYZS",
        "longitude": -83.3593978882
    },
    {
        "country": "Canada",
        "altitude": 1215,
        "dst": "A",
        "city": "Dawson",
        "airportId": 42,
        "timezone": -8,
        "latitude": 64.04309844970703,
        "source": "OurAirports",
        "type": "airport",
        "tzDatabaseTimezone": "America/Vancouver",
        "iata": "YDA",
        "name": "Dawson City Airport",
        "icao": "CYDA",
        "longitude": -139.1280059814453
    },
    {
        "country": "Canada",
        "altitude": 2647,
        "dst": "A",
        "city": "Burwash",
        "airportId": 43,
        "timezone": -8,
        "latitude": 61.37110137939453,
        "source": "OurAirports",
        "type": "airport",
        "tzDatabaseTimezone": "America/Vancouver",
        "iata": "YDB",
        "name": "Burwash Airport",
        "icao": "CYDB",
        "longitude": -139.04100036621094
    },
    {
        "country": "Canada",
        "altitude": 2298,
        "dst": "A",
        "city": "Princeton",
        "airportId": 44,
        "timezone": -8,
        "latitude": 49.4681015015,
        "source": "OurAirports",
        "type": "airport",
        "tzDatabaseTimezone": "America/Vancouver",
        "iata": null,
        "name": "Princeton Airport",
        "icao": "CYDC",
        "longitude": -120.511001587
    },
    {
        "country": "Canada",
        "altitude": 72,
        "dst": "A",
        "city": "Deer Lake",
        "airportId": 45,
        "timezone": -3.5,
        "latitude": 49.21080017089844,
        "source": "OurAirports",
        "type": "airport",
        "tzDatabaseTimezone": "America/St_Johns",
        "iata": "YDF",
        "name": "Deer Lake Airport",
        "icao": "CYDF",
        "longitude": -57.39139938354492
    },
    {
        "country": "Canada",
        "altitude": 2600,
        "dst": "A",
        "city": "Dease Lake",
        "airportId": 46,
        "timezone": -8,
        "latitude": 58.4221992493,
        "source": "OurAirports",
        "type": "airport",
        "tzDatabaseTimezone": "America/Vancouver",
        "iata": "YDL",
        "name": "Dease Lake Airport",
        "icao": "CYDL",
        "longitude": -130.031997681
    },
    {
        "country": "Canada",
        "altitude": 999,
        "dst": "A",
        "city": "Dauphin",
        "airportId": 47,
        "timezone": -6,
        "latitude": 51.100799560546875,
        "source": "OurAirports",
        "type": "airport",
        "tzDatabaseTimezone": "America/Winnipeg",
        "iata": "YDN",
        "name": "Dauphin Barker Airport",
        "icao": "CYDN",
        "longitude": -100.052001953125
    },
    {
        "country": "Canada",
        "altitude": 2148,
        "dst": "A",
        "city": "Dawson Creek",
        "airportId": 48,
        "timezone": -7,
        "latitude": 55.7422981262207,
        "source": "OurAirports",
        "type": "airport",
        "tzDatabaseTimezone": "America/Dawson_Creek",
        "iata": "YDQ",
        "name": "Dawson Creek Airport",
        "icao": "CYDQ",
        "longitude": -120.18299865722656
    },
    {
        "country": "Canada",
        "altitude": 2373,
        "dst": "A",
        "city": "Edmonton",
        "airportId": 49,
        "timezone": -7,
        "latitude": 53.309700012200004,
        "source": "OurAirports",
        "type": "airport",
        "tzDatabaseTimezone": "America/Edmonton",
        "iata": "YEG",
        "name": "Edmonton International Airport",
        "icao": "CYEG",
        "longitude": -113.580001831
    },
    {
        "country": "Canada",
        "altitude": 32,
        "dst": "A",
        "city": "Eskimo Point",
        "airportId": 50,
        "timezone": -6,
        "latitude": 61.0942001343,
        "source": "OurAirports",
        "type": "airport",
        "tzDatabaseTimezone": "America/Winnipeg",
        "iata": "YEK",
        "name": "Arviat Airport",
        "icao": "CYEK",
        "longitude": -94.07080078119999
    },
    {
        "country": "Canada",
        "altitude": 1905,
        "dst": "N",
        "city": "Estevan",
        "airportId": 51,
        "timezone": -6,
        "latitude": 49.2103004456,
        "source": "OurAirports",
        "type": "airport",
        "tzDatabaseTimezone": "America/Regina",
        "iata": "YEN",
        "name": "Estevan Airport",
        "icao": "CYEN",
        "longitude": -102.966003418
    },
    {
        "country": "Canada",
        "altitude": 3043,
        "dst": "A",
        "city": "Edson",
        "airportId": 52,
        "timezone": -7,
        "latitude": 53.578899383499994,
        "source": "OurAirports",
        "type": "airport",
        "tzDatabaseTimezone": "America/Edmonton",
        "iata": "YET",
        "name": "Edson Airport",
        "icao": "CYET",
        "longitude": -116.464996338
    },
    {
        "country": "Canada",
        "altitude": 256,
        "dst": "A",
        "city": "Eureka",
        "airportId": 53,
        "timezone": -6,
        "latitude": 79.9946975708,
        "source": "OurAirports",
        "type": "airport",
        "tzDatabaseTimezone": "America/Winnipeg",
        "iata": "YEU",
        "name": "Eureka Airport",
        "icao": "CYEU",
        "longitude": -85.814201355
    },
    {
        "country": "Canada",
        "altitude": 224,
        "dst": "A",
        "city": "Inuvik",
        "airportId": 54,
        "timezone": -7,
        "latitude": 68.30419921880001,
        "source": "OurAirports",
        "type": "airport",
        "tzDatabaseTimezone": "America/Edmonton",
        "iata": "YEV",
        "name": "Inuvik Mike Zubko Airport",
        "icao": "CYEV",
        "longitude": -133.483001709
    },
    {
        "country": "Canada",
        "altitude": 110,
        "dst": "A",
        "city": "Iqaluit",
        "airportId": 55,
        "timezone": -5,
        "latitude": 63.756402,
        "source": "OurAirports",
        "type": "airport",
        "tzDatabaseTimezone": "America/Toronto",
        "iata": "YFB",
        "name": "Iqaluit Airport",
        "icao": "CYFB",
        "longitude": -68.555801
    },
    {
        "country": "Canada",
        "altitude": 68,
        "dst": "A",
        "city": "Fredericton",
        "airportId": 56,
        "timezone": -4,
        "latitude": 45.868900299072266,
        "source": "OurAirports",
        "type": "airport",
        "tzDatabaseTimezone": "America/Halifax",
        "iata": "YFC",
        "name": "Fredericton Airport",
        "icao": "CYFC",
        "longitude": -66.53720092773438
    },
    {
        "country": "Canada",
        "altitude": 293,
        "dst": "A",
        "city": "Forestville",
        "airportId": 57,
        "timezone": -5,
        "latitude": 48.74610137939453,
        "source": "OurAirports",
        "type": "airport",
        "tzDatabaseTimezone": "America/Toronto",
        "iata": "YFE",
        "name": "Forestville Airport",
        "icao": "CYFE",
        "longitude": -69.09719848632812
    },
    {
        "country": "Canada",
        "altitude": 997,
        "dst": "A",
        "city": "Flin Flon",
        "airportId": 58,
        "timezone": -6,
        "latitude": 54.6781005859375,
        "source": "OurAirports",
        "type": "airport",
        "tzDatabaseTimezone": "America/Winnipeg",
        "iata": "YFO",
        "name": "Flin Flon Airport",
        "icao": "CYFO",
        "longitude": -101.68199920654297
    },
    {
        "country": "Canada",
        "altitude": 526,
        "dst": "A",
        "city": "Fort Resolution",
        "airportId": 59,
        "timezone": -7,
        "latitude": 61.1808013916,
        "source": "OurAirports",
        "type": "airport",
        "tzDatabaseTimezone": "America/Edmonton",
        "iata": "YFR",
        "name": "Fort Resolution Airport",
        "icao": "CYFR",
        "longitude": -113.690002441
    },
    {
        "country": "Canada",
        "altitude": 555,
        "dst": "A",
        "city": "Fort Simpson",
        "airportId": 60,
        "timezone": -7,
        "latitude": 61.76020050048828,
        "source": "OurAirports",
        "type": "airport",
        "tzDatabaseTimezone": "America/Edmonton",
        "iata": "YFS",
        "name": "Fort Simpson Airport",
        "icao": "CYFS",
        "longitude": -121.23699951171875
    },
    {
        "country": "Canada",
        "altitude": 305,
        "dst": "A",
        "city": "Kingston",
        "airportId": 61,
        "timezone": -5,
        "latitude": 44.22529983520508,
        "source": "OurAirports",
        "type": "airport",
        "tzDatabaseTimezone": "America/Toronto",
        "iata": "YGK",
        "name": "Kingston Norman Rogers Airport",
        "icao": "CYGK",
        "longitude": -76.5969009399414
    },
    {
        "country": "Canada",
        "altitude": 639,
        "dst": "A",
        "city": "La Grande Riviere",
        "airportId": 62,
        "timezone": -5,
        "latitude": 53.625301361083984,
        "source": "OurAirports",
        "type": "airport",
        "tzDatabaseTimezone": "America/Toronto",
        "iata": "YGL",
        "name": "La Grande Rivière Airport",
        "icao": "CYGL",
        "longitude": -77.7042007446289
    },
    {
        "country": "Canada",
        "altitude": 112,
        "dst": "A",
        "city": "Gaspe",
        "airportId": 63,
        "timezone": -5,
        "latitude": 48.7752990723,
        "source": "OurAirports",
        "type": "airport",
        "tzDatabaseTimezone": "America/Toronto",
        "iata": "YGP",
        "name": "Gaspé (Michel-Pouliot) Airport",
        "icao": "CYGP",
        "longitude": -64.4785995483
    },
    {
        "country": "Canada",
        "altitude": 1144,
        "dst": "A",
        "city": "Geraldton",
        "airportId": 64,
        "timezone": -5,
        "latitude": 49.77830123901367,
        "source": "OurAirports",
        "type": "airport",
        "tzDatabaseTimezone": "America/Toronto",
        "iata": "YGQ",
        "name": "Geraldton Greenstone Regional Airport",
        "icao": "CYGQ",
        "longitude": -86.93939971923828
    },
    {
        "country": "Canada",
        "altitude": 35,
        "dst": "A",
        "city": "Iles De La Madeleine",
        "airportId": 65,
        "timezone": -5,
        "latitude": 47.42470169067383,
        "source": "OurAirports",
        "type": "airport",
        "tzDatabaseTimezone": "America/Toronto",
        "iata": "YGR",
        "name": "Îles-de-la-Madeleine Airport",
        "icao": "CYGR",
        "longitude": -61.778099060058594
    },
    {
        "country": "Canada",
        "altitude": 1175,
        "dst": "N",
        "city": "Hudson Bay",
        "airportId": 66,
        "timezone": -6,
        "latitude": 52.8166999817,
        "source": "OurAirports",
        "type": "airport",
        "tzDatabaseTimezone": "America/Regina",
        "iata": "YHB",
        "name": "Hudson Bay Airport",
        "icao": "CYHB",
        "longitude": -102.310997009
    },
    {
        "country": "Canada",
        "altitude": 1354,
        "dst": "A",
        "city": "Dryden",
        "airportId": 67,
        "timezone": -6,
        "latitude": 49.831699,
        "source": "OurAirports",
        "type": "airport",
        "tzDatabaseTimezone": "America/Winnipeg",
        "iata": "YHD",
        "name": "Dryden Regional Airport",
        "icao": "CYHD",
        "longitude": -92.744202
    },
    {
        "country": "Canada",
        "altitude": 117,
        "dst": "A",
        "city": "Holman Island",
        "airportId": 68,
        "timezone": -7,
        "latitude": 70.76280212402344,
        "source": "OurAirports",
        "type": "airport",
        "tzDatabaseTimezone": "America/Edmonton",
        "iata": "YHI",
        "name": "Ulukhaktok Holman Airport",
        "icao": "CYHI",
        "longitude": -117.80599975585938
    },
    {
        "country": "Canada",
        "altitude": 152,
        "dst": "A",
        "city": "Gjoa Haven",
        "airportId": 69,
        "timezone": -7,
        "latitude": 68.635597229,
        "source": "OurAirports",
        "type": "airport",
        "tzDatabaseTimezone": "America/Edmonton",
        "iata": "YHK",
        "name": "Gjoa Haven Airport",
        "icao": "CYHK",
        "longitude": -95.84970092770001
    },
    {
        "country": "Canada",
        "altitude": 780,
        "dst": "A",
        "city": "Hamilton",
        "airportId": 70,
        "timezone": -5,
        "latitude": 43.173599243199995,
        "source": "OurAirports",
        "type": "airport",
        "tzDatabaseTimezone": "America/Toronto",
        "iata": "YHM",
        "name": "John C. Munro Hamilton International Airport",
        "icao": "CYHM",
        "longitude": -79.93499755859999
    },
    {
        "country": "Canada",
        "altitude": 90,
        "dst": "A",
        "city": "Montreal",
        "airportId": 71,
        "timezone": -5,
        "latitude": 45.5175018311,
        "source": "OurAirports",
        "type": "airport",
        "tzDatabaseTimezone": "America/Toronto",
        "iata": "YHU",
        "name": "Montréal / Saint-Hubert Airport",
        "icao": "CYHU",
        "longitude": -73.4169006348
    },
    {
        "country": "Canada",
        "altitude": 541,
        "dst": "A",
        "city": "Hay River",
        "airportId": 72,
        "timezone": -7,
        "latitude": 60.8396987915,
        "source": "OurAirports",
        "type": "airport",
        "tzDatabaseTimezone": "America/Edmonton",
        "iata": "YHY",
        "name": "Hay River / Merlyn Carter Airport",
        "icao": "CYHY",
        "longitude": -115.782997131
    },
    {
        "country": "Canada",
        "altitude": 477,
        "dst": "A",
        "city": "Halifax",
        "airportId": 73,
        "timezone": -4,
        "latitude": 44.8807983398,
        "source": "OurAirports",
        "type": "airport",
        "tzDatabaseTimezone": "America/Halifax",
        "iata": "YHZ",
        "name": "Halifax / Stanfield International Airport",
        "icao": "CYHZ",
        "longitude": -63.5085983276
    },
    {
        "country": "Canada",
        "altitude": 1408,
        "dst": "A",
        "city": "Atikokan",
        "airportId": 74,
        "timezone": -5,
        "latitude": 48.7738990784,
        "source": "OurAirports",
        "type": "airport",
        "tzDatabaseTimezone": "America/Coral_Harbour",
        "iata": "YIB",
        "name": "Atikokan Municipal Airport",
        "icao": "CYIB",
        "longitude": -91.6386032104
    },
    {
        "country": "Canada",
        "altitude": 181,
        "dst": "A",
        "city": "Pond Inlet",
        "airportId": 75,
        "timezone": -5,
        "latitude": 72.6832962036,
        "source": "OurAirports",
        "type": "airport",
        "tzDatabaseTimezone": "America/Toronto",
        "iata": "YIO",
        "name": "Pond Inlet Airport",
        "icao": "CYIO",
        "longitude": -77.9666976929
    },
    {
        "country": "Canada",
        "altitude": 136,
        "dst": "A",
        "city": "St. Jean",
        "airportId": 76,
        "timezone": -5,
        "latitude": 45.29439926147461,
        "source": "OurAirports",
        "type": "airport",
        "tzDatabaseTimezone": "America/Toronto",
        "iata": "YJN",
        "name": "St Jean Airport",
        "icao": "CYJN",
        "longitude": -73.28109741210938
    },
    {
        "country": "Canada",
        "altitude": 84,
        "dst": "A",
        "city": "Stephenville",
        "airportId": 77,
        "timezone": -3.5,
        "latitude": 48.5442008972168,
        "source": "OurAirports",
        "type": "airport",
        "tzDatabaseTimezone": "America/St_Johns",
        "iata": "YJT",
        "name": "Stephenville Airport",
        "icao": "CYJT",
        "longitude": -58.54999923706055
    },
    {
        "country": "Canada",
        "altitude": 1133,
        "dst": "A",
        "city": "Kamloops",
        "airportId": 78,
        "timezone": -8,
        "latitude": 50.7022018433,
        "source": "OurAirports",
        "type": "airport",
        "tzDatabaseTimezone": "America/Vancouver",
        "iata": "YKA",
        "name": "Kamloops Airport",
        "icao": "CYKA",
        "longitude": -120.444000244
    },
    {
        "country": "Canada",
        "altitude": 1055,
        "dst": "A",
        "city": "Waterloo",
        "airportId": 79,
        "timezone": -5,
        "latitude": 43.460800170899994,
        "source": "OurAirports",
        "type": "airport",
        "tzDatabaseTimezone": "America/Toronto",
        "iata": "YKF",
        "name": "Waterloo Airport",
        "icao": "CYKF",
        "longitude": -80.3786010742
    },
    {
        "country": "Canada",
        "altitude": 1709,
        "dst": "A",
        "city": "Schefferville",
        "airportId": 80,
        "timezone": -5,
        "latitude": 54.805301666259766,
        "source": "OurAirports",
        "type": "airport",
        "tzDatabaseTimezone": "America/Toronto",
        "iata": "YKL",
        "name": "Schefferville Airport",
        "icao": "CYKL",
        "longitude": -66.8052978515625
    },
    {
        "country": "Canada",
        "altitude": 2277,
        "dst": "N",
        "city": "Kindersley",
        "airportId": 81,
        "timezone": -6,
        "latitude": 51.5175018311,
        "source": "OurAirports",
        "type": "airport",
        "tzDatabaseTimezone": "America/Regina",
        "iata": "YKY",
        "name": "Kindersley Airport",
        "icao": "CYKY",
        "longitude": -109.180999756
    },
    {
        "country": "Canada",
        "altitude": 650,
        "dst": "A",
        "city": "Toronto",
        "airportId": 82,
        "timezone": -5,
        "latitude": 43.86220169067383,
        "source": "OurAirports",
        "type": "airport",
        "tzDatabaseTimezone": "America/Toronto",
        "iata": "YKZ",
        "name": "Buttonville Municipal Airport",
        "icao": "CYKZ",
        "longitude": -79.37000274658203
    },
    {
        "country": "Canada",
        "altitude": 1470,
        "dst": "A",
        "city": "Chapleau",
        "airportId": 83,
        "timezone": -5,
        "latitude": 47.81999969482422,
        "source": "OurAirports",
        "type": "airport",
        "tzDatabaseTimezone": "America/Toronto",
        "iata": "YLD",
        "name": "Chapleau Airport",
        "icao": "CYLD",
        "longitude": -83.3467025756836
    },
    {
        "country": "Canada",
        "altitude": 1576,
        "dst": "N",
        "city": "Meadow Lake",
        "airportId": 84,
        "timezone": -6,
        "latitude": 54.125301361083984,
        "source": "OurAirports",
        "type": "airport",
        "tzDatabaseTimezone": "America/Regina",
        "iata": "YLJ",
        "name": "Meadow Lake Airport",
        "icao": "CYLJ",
        "longitude": -108.52300262451172
    },
    {
        "country": "Canada",
        "altitude": 2193,
        "dst": "A",
        "city": "Lloydminster",
        "airportId": 85,
        "timezone": -7,
        "latitude": 53.309200286865234,
        "source": "OurAirports",
        "type": "airport",
        "tzDatabaseTimezone": "America/Edmonton",
        "iata": "YLL",
        "name": "Lloydminster Airport",
        "icao": "CYLL",
        "longitude": -110.072998046875
    },
    {
        "country": "Canada",
        "altitude": 100,
        "dst": "A",
        "city": "Alert",
        "airportId": 86,
        "timezone": -5,
        "latitude": 82.51779937740001,
        "source": "OurAirports",
        "type": "airport",
        "tzDatabaseTimezone": "America/Toronto",
        "iata": "YLT",
        "name": "Alert Airport",
        "icao": "CYLT",
        "longitude": -62.2806015015
    },
    {
        "country": "Canada",
        "altitude": 1421,
        "dst": "A",
        "city": "Kelowna",
        "airportId": 87,
        "timezone": -8,
        "latitude": 49.9561004639,
        "source": "OurAirports",
        "type": "airport",
        "tzDatabaseTimezone": "America/Vancouver",
        "iata": "YLW",
        "name": "Kelowna International Airport",
        "icao": "CYLW",
        "longitude": -119.377998352
    },
    {
        "country": "Canada",
        "altitude": 1653,
        "dst": "A",
        "city": "Mayo",
        "airportId": 88,
        "timezone": -8,
        "latitude": 63.61640167236328,
        "source": "OurAirports",
        "type": "airport",
        "tzDatabaseTimezone": "America/Vancouver",
        "iata": "YMA",
        "name": "Mayo Airport",
        "icao": "CYMA",
        "longitude": -135.8679962158203
    },
    {
        "country": "Canada",
        "altitude": 1892,
        "dst": "N",
        "city": "Moose Jaw",
        "airportId": 89,
        "timezone": -6,
        "latitude": 50.330299377441406,
        "source": "OurAirports",
        "type": "airport",
        "tzDatabaseTimezone": "America/Regina",
        "iata": "YMJ",
        "name": "Moose Jaw Air Vice Marshal C. M. McEwen Airport",
        "icao": "CYMJ",
        "longitude": -105.55899810791016
    },
    {
        "country": "Canada",
        "altitude": 1211,
        "dst": "A",
        "city": "Fort Mcmurray",
        "airportId": 90,
        "timezone": -7,
        "latitude": 56.653301239,
        "source": "OurAirports",
        "type": "airport",
        "tzDatabaseTimezone": "America/Edmonton",
        "iata": "YMM",
        "name": "Fort McMurray Airport",
        "icao": "CYMM",
        "longitude": -111.222000122
    },
    {
        "country": "Canada",
        "altitude": 30,
        "dst": "A",
        "city": "Moosonee",
        "airportId": 91,
        "timezone": -5,
        "latitude": 51.291099548339844,
        "source": "OurAirports",
        "type": "airport",
        "tzDatabaseTimezone": "America/Toronto",
        "iata": "YMO",
        "name": "Moosonee Airport",
        "icao": "CYMO",
        "longitude": -80.60780334472656
    },
    {
        "country": "Canada",
        "altitude": 656,
        "dst": "A",
        "city": "Maniwaki",
        "airportId": 92,
        "timezone": -5,
        "latitude": 46.2728004456,
        "source": "OurAirports",
        "type": "airport",
        "tzDatabaseTimezone": "America/Toronto",
        "iata": "YMW",
        "name": "Maniwaki Airport",
        "icao": "CYMW",
        "longitude": -75.9906005859
    },
    {
        "country": "Canada",
        "altitude": 270,
        "dst": "A",
        "city": "Montreal",
        "airportId": 93,
        "timezone": -5,
        "latitude": 45.679501,
        "source": "OurAirports",
        "type": "airport",
        "tzDatabaseTimezone": "America/Toronto",
        "iata": "YMX",
        "name": "Montreal International (Mirabel) Airport",
        "icao": "CYMX",
        "longitude": -74.038696
    },
    {
        "country": "Canada",
        "altitude": 39,
        "dst": "A",
        "city": "Natashquan",
        "airportId": 94,
        "timezone": -5,
        "latitude": 50.189998626708984,
        "source": "OurAirports",
        "type": "airport",
        "tzDatabaseTimezone": "America/Toronto",
        "iata": "YNA",
        "name": "Natashquan Airport",
        "icao": "CYNA",
        "longitude": -61.78919982910156
    },
    {
        "country": "Canada",
        "altitude": 211,
        "dst": "A",
        "city": "Gatineau",
        "airportId": 95,
        "timezone": -5,
        "latitude": 45.521701812699995,
        "source": "OurAirports",
        "type": "airport",
        "tzDatabaseTimezone": "America/Toronto",
        "iata": "YND",
        "name": "Ottawa / Gatineau Airport",
        "icao": "CYND",
        "longitude": -75.5635986328
    },
    {
        "country": "Canada",
        "altitude": 918,
        "dst": "A",
        "city": "Matagami",
        "airportId": 96,
        "timezone": -5,
        "latitude": 49.76169967651367,
        "source": "OurAirports",
        "type": "airport",
        "tzDatabaseTimezone": "America/Toronto",
        "iata": "YNM",
        "name": "Matagami Airport",
        "icao": "CYNM",
        "longitude": -77.80280303955078
    },
    {
        "country": "Canada",
        "altitude": 824,
        "dst": "A",
        "city": "Old Crow",
        "airportId": 97,
        "timezone": -8,
        "latitude": 67.57060241699219,
        "source": "OurAirports",
        "type": "airport",
        "tzDatabaseTimezone": "America/Vancouver",
        "iata": "YOC",
        "name": "Old Crow Airport",
        "icao": "CYOC",
        "longitude": -139.83900451660156
    },
    {
        "country": "Canada",
        "altitude": 1775,
        "dst": "A",
        "city": "Cold Lake",
        "airportId": 98,
        "timezone": -7,
        "latitude": 54.404998779296875,
        "source": "OurAirports",
        "type": "airport",
        "tzDatabaseTimezone": "America/Edmonton",
        "iata": "YOD",
        "name": "CFB Cold Lake",
        "icao": "CYOD",
        "longitude": -110.27899932861328
    },
    {
        "country": "Canada",
        "altitude": 1110,
        "dst": "A",
        "city": "High Level",
        "airportId": 99,
        "timezone": -7,
        "latitude": 58.62139892578125,
        "source": "OurAirports",
        "type": "airport",
        "tzDatabaseTimezone": "America/Edmonton",
        "iata": "YOJ",
        "name": "High Level Airport",
        "icao": "CYOJ",
        "longitude": -117.16500091552734
    },
    {
        "country": "Canada",
        "altitude": 374,
        "dst": "A",
        "city": "Ottawa",
        "airportId": 100,
        "timezone": -5,
        "latitude": 45.3224983215332,
        "source": "OurAirports",
        "type": "airport",
        "tzDatabaseTimezone": "America/Toronto",
        "iata": "YOW",
        "name": "Ottawa Macdonald-Cartier International Airport",
        "icao": "CYOW",
        "longitude": -75.66919708251953
    },
    {
        "country": "Canada",
        "altitude": 1405,
        "dst": "N",
        "city": "Prince Albert",
        "airportId": 101,
        "timezone": -6,
        "latitude": 53.214199066199996,
        "source": "OurAirports",
        "type": "airport",
        "tzDatabaseTimezone": "America/Regina",
        "iata": "YPA",
        "name": "Prince Albert Glass Field",
        "icao": "CYPA",
        "longitude": -105.672996521
    },
    {
        "country": "Canada",
        "altitude": 1873,
        "dst": "A",
        "city": "Peace River",
        "airportId": 102,
        "timezone": -7,
        "latitude": 56.226898,
        "source": "OurAirports",
        "type": "airport",
        "tzDatabaseTimezone": "America/Edmonton",
        "iata": "YPE",
        "name": "Peace River Airport",
        "icao": "CYPE",
        "longitude": -117.446999
    },
    {
        "country": "Canada",
        "altitude": 885,
        "dst": "A",
        "city": "Portage-la-prairie",
        "airportId": 103,
        "timezone": -6,
        "latitude": 49.903099,
        "source": "OurAirports",
        "type": "airport",
        "tzDatabaseTimezone": "America/Winnipeg",
        "iata": "YPG",
        "name": "Southport Airport",
        "icao": "CYPG",
        "longitude": -98.273817
    },
    {
        "country": "Canada",
        "altitude": 11,
        "dst": "A",
        "city": "Pitt Meadows",
        "airportId": 104,
        "timezone": -8,
        "latitude": 49.21609878540039,
        "source": "OurAirports",
        "type": "airport",
        "tzDatabaseTimezone": "America/Vancouver",
        "iata": null,
        "name": "Pitt Meadows Airport",
        "icao": "CYPK",
        "longitude": -122.70999908447266
    },
    {
        "country": "Canada",
        "altitude": 1267,
        "dst": "A",
        "city": "Pickle Lake",
        "airportId": 105,
        "timezone": -5,
        "latitude": 51.4463996887207,
        "source": "OurAirports",
        "type": "airport",
        "tzDatabaseTimezone": "America/Coral_Harbour",
        "iata": "YPL",
        "name": "Pickle Lake Airport",
        "icao": "CYPL",
        "longitude": -90.21420288085938
    },
    {
        "country": "Canada",
        "altitude": 167,
        "dst": "A",
        "city": "Port Menier",
        "airportId": 106,
        "timezone": -5,
        "latitude": 49.83639907836914,
        "source": "OurAirports",
        "type": "airport",
        "tzDatabaseTimezone": "America/Toronto",
        "iata": "YPN",
        "name": "Port Menier Airport",
        "icao": "CYPN",
        "longitude": -64.2885971069336
    },
    {
        "country": "Canada",
        "altitude": 628,
        "dst": "A",
        "city": "Peterborough",
        "airportId": 107,
        "timezone": -5,
        "latitude": 44.22999954223633,
        "source": "OurAirports",
        "type": "airport",
        "tzDatabaseTimezone": "America/Toronto",
        "iata": "YPQ",
        "name": "Peterborough Airport",
        "icao": "CYPQ",
        "longitude": -78.36329650878906
    },
    {
        "country": "Canada",
        "altitude": 116,
        "dst": "A",
        "city": "Prince Pupert",
        "airportId": 108,
        "timezone": -8,
        "latitude": 54.286098480199996,
        "source": "OurAirports",
        "type": "airport",
        "tzDatabaseTimezone": "America/Vancouver",
        "iata": "YPR",
        "name": "Prince Rupert Airport",
        "icao": "CYPR",
        "longitude": -130.445007324
    },
    {
        "country": "Canada",
        "altitude": 761,
        "dst": "A",
        "city": "Fort Chipewyan",
        "airportId": 109,
        "timezone": -7,
        "latitude": 58.7672004699707,
        "source": "OurAirports",
        "type": "airport",
        "tzDatabaseTimezone": "America/Edmonton",
        "iata": "YPY",
        "name": "Fort Chipewyan Airport",
        "icao": "CYPY",
        "longitude": -111.11699676513672
    },
    {
        "country": "Canada",
        "altitude": 925,
        "dst": "A",
        "city": "Muskoka",
        "airportId": 110,
        "timezone": -5,
        "latitude": 44.974700927734375,
        "source": "OurAirports",
        "type": "airport",
        "tzDatabaseTimezone": "America/Toronto",
        "iata": "YQA",
        "name": "Muskoka Airport",
        "icao": "CYQA",
        "longitude": -79.30329895019531
    },
    {
        "country": "Canada",
        "altitude": 244,
        "dst": "A",
        "city": "Quebec",
        "airportId": 111,
        "timezone": -5,
        "latitude": 46.7911,
        "source": "OurAirports",
        "type": "airport",
        "tzDatabaseTimezone": "America/Toronto",
        "iata": "YQB",
        "name": "Quebec Jean Lesage International Airport",
        "icao": "CYQB",
        "longitude": -71.393303
    },
    {
        "country": "Canada",
        "altitude": 2968,
        "dst": "A",
        "city": "Red Deer Industrial",
        "airportId": 112,
        "timezone": -7,
        "latitude": 52.18220138549805,
        "source": "OurAirports",
        "type": "airport",
        "tzDatabaseTimezone": "America/Edmonton",
        "iata": "YQF",
        "name": "Red Deer Regional Airport",
        "icao": "CYQF",
        "longitude": -113.89399719238281
    },
    {
        "country": "Canada",
        "altitude": 622,
        "dst": "A",
        "city": "Windsor",
        "airportId": 113,
        "timezone": -5,
        "latitude": 42.27560043334961,
        "source": "OurAirports",
        "type": "airport",
        "tzDatabaseTimezone": "America/Toronto",
        "iata": "YQG",
        "name": "Windsor Airport",
        "icao": "CYQG",
        "longitude": -82.95559692382812
    },
    {
        "country": "Canada",
        "altitude": 2255,
        "dst": "A",
        "city": "Watson Lake",
        "airportId": 114,
        "timezone": -8,
        "latitude": 60.11640167236328,
        "source": "OurAirports",
        "type": "airport",
        "tzDatabaseTimezone": "America/Vancouver",
        "iata": "YQH",
        "name": "Watson Lake Airport",
        "icao": "CYQH",
        "longitude": -128.82200622558594
    },
    {
        "country": "Canada",
        "altitude": 1332,
        "dst": "A",
        "city": "Kenora",
        "airportId": 115,
        "timezone": -6,
        "latitude": 49.788299560546875,
        "source": "OurAirports",
        "type": "airport",
        "tzDatabaseTimezone": "America/Winnipeg",
        "iata": "YQK",
        "name": "Kenora Airport",
        "icao": "CYQK",
        "longitude": -94.36309814453125
    },
    {
        "country": "Canada",
        "altitude": 3048,
        "dst": "A",
        "city": "Lethbridge",
        "airportId": 116,
        "timezone": -7,
        "latitude": 49.6302986145,
        "source": "OurAirports",
        "type": "airport",
        "tzDatabaseTimezone": "America/Edmonton",
        "iata": "YQL",
        "name": "Lethbridge County Airport",
        "icao": "CYQL",
        "longitude": -112.800003052
    },
    {
        "country": "Canada",
        "altitude": 232,
        "dst": "A",
        "city": "Moncton",
        "airportId": 117,
        "timezone": -4,
        "latitude": 46.11220169067383,
        "source": "OurAirports",
        "type": "airport",
        "tzDatabaseTimezone": "America/Halifax",
        "iata": "YQM",
        "name": "Greater Moncton International Airport",
        "icao": "CYQM",
        "longitude": -64.67859649658203
    },
    {
        "country": "Canada",
        "altitude": 84,
        "dst": "A",
        "city": "Comox",
        "airportId": 119,
        "timezone": -8,
        "latitude": 49.71080017089844,
        "source": "OurAirports",
        "type": "airport",
        "tzDatabaseTimezone": "America/Vancouver",
        "iata": "YQQ",
        "name": "Comox Airport",
        "icao": "CYQQ",
        "longitude": -124.88700103759766
    },
    {
        "country": "Canada",
        "altitude": 1894,
        "dst": "N",
        "city": "Regina",
        "airportId": 120,
        "timezone": -6,
        "latitude": 50.43190002441406,
        "source": "OurAirports",
        "type": "airport",
        "tzDatabaseTimezone": "America/Regina",
        "iata": "YQR",
        "name": "Regina International Airport",
        "icao": "CYQR",
        "longitude": -104.66600036621094
    },
    {
        "country": "Canada",
        "altitude": 653,
        "dst": "A",
        "city": "Thunder Bay",
        "airportId": 121,
        "timezone": -5,
        "latitude": 48.37189865112305,
        "source": "OurAirports",
        "type": "airport",
        "tzDatabaseTimezone": "America/Toronto",
        "iata": "YQT",
        "name": "Thunder Bay Airport",
        "icao": "CYQT",
        "longitude": -89.32389831542969
    },
    {
        "country": "Canada",
        "altitude": 2195,
        "dst": "A",
        "city": "Grande Prairie",
        "airportId": 122,
        "timezone": -7,
        "latitude": 55.1796989441,
        "source": "OurAirports",
        "type": "airport",
        "tzDatabaseTimezone": "America/Edmonton",
        "iata": "YQU",
        "name": "Grande Prairie Airport",
        "icao": "CYQU",
        "longitude": -118.885002136
    },
    {
        "country": "Canada",
        "altitude": 1635,
        "dst": "N",
        "city": "Yorkton",
        "airportId": 123,
        "timezone": -6,
        "latitude": 51.26470184326172,
        "source": "OurAirports",
        "type": "airport",
        "tzDatabaseTimezone": "America/Regina",
        "iata": "YQV",
        "name": "Yorkton Municipal Airport",
        "icao": "CYQV",
        "longitude": -102.46199798583984
    },
    {
        "country": "Canada",
        "altitude": 1799,
        "dst": "N",
        "city": "North Battleford",
        "airportId": 124,
        "timezone": -6,
        "latitude": 52.76919937133789,
        "source": "OurAirports",
        "type": "airport",
        "tzDatabaseTimezone": "America/Regina",
        "iata": "YQW",
        "name": "North Battleford Airport",
        "icao": "CYQW",
        "longitude": -108.24400329589844
    },
    {
        "country": "Canada",
        "altitude": 496,
        "dst": "A",
        "city": "Gander",
        "airportId": 125,
        "timezone": -3.5,
        "latitude": 48.9369010925293,
        "source": "OurAirports",
        "type": "airport",
        "tzDatabaseTimezone": "America/St_Johns",
        "iata": "YQX",
        "name": "Gander International Airport",
        "icao": "CYQX",
        "longitude": -54.56809997558594
    },
    {
        "country": "Canada",
        "altitude": 203,
        "dst": "A",
        "city": "Sydney",
        "airportId": 126,
        "timezone": -4,
        "latitude": 46.1614,
        "source": "OurAirports",
        "type": "airport",
        "tzDatabaseTimezone": "America/Halifax",
        "iata": "YQY",
        "name": "Sydney / J.A. Douglas McCurdy Airport",
        "icao": "CYQY",
        "longitude": -60.047798
    },
    {
        "country": "Canada",
        "altitude": 1789,
        "dst": "A",
        "city": "Quesnel",
        "airportId": 127,
        "timezone": -8,
        "latitude": 53.026100158691406,
        "source": "OurAirports",
        "type": "airport",
        "tzDatabaseTimezone": "America/Vancouver",
        "iata": "YQZ",
        "name": "Quesnel Airport",
        "icao": "CYQZ",
        "longitude": -122.51000213623047
    },
    {
        "country": "Canada",
        "altitude": 215,
        "dst": "A",
        "city": "Resolute",
        "airportId": 128,
        "timezone": -6,
        "latitude": 74.7169036865,
        "source": "OurAirports",
        "type": "airport",
        "tzDatabaseTimezone": "America/Winnipeg",
        "iata": "YRB",
        "name": "Resolute Bay Airport",
        "icao": "CYRB",
        "longitude": -94.9693984985
    },
    {
        "country": "Canada",
        "altitude": 427,
        "dst": "A",
        "city": "Riviere Du Loup",
        "airportId": 129,
        "timezone": -5,
        "latitude": 47.764400482177734,
        "source": "OurAirports",
        "type": "airport",
        "tzDatabaseTimezone": "America/Toronto",
        "iata": "YRI",
        "name": "Rivière-du-Loup Airport",
        "icao": "CYRI",
        "longitude": -69.58470153808594
    },
    {
        "country": "Canada",
        "altitude": 586,
        "dst": "A",
        "city": "Roberval",
        "airportId": 130,
        "timezone": -5,
        "latitude": 48.52000045776367,
        "source": "OurAirports",
        "type": "airport",
        "tzDatabaseTimezone": "America/Toronto",
        "iata": "YRJ",
        "name": "Roberval Airport",
        "icao": "CYRJ",
        "longitude": -72.2656021118164
    },
    {
        "country": "Canada",
        "altitude": 3244,
        "dst": "A",
        "city": "Rocky Mountain House",
        "airportId": 131,
        "timezone": -7,
        "latitude": 52.4296989441,
        "source": "OurAirports",
        "type": "airport",
        "tzDatabaseTimezone": "America/Edmonton",
        "iata": "YRM",
        "name": "Rocky Mountain House Airport",
        "icao": "CYRM",
        "longitude": -114.903999329
    },
    {
        "country": "Canada",
        "altitude": 94,
        "dst": "A",
        "city": "Rankin Inlet",
        "airportId": 132,
        "timezone": -6,
        "latitude": 62.8114013672,
        "source": "OurAirports",
        "type": "airport",
        "tzDatabaseTimezone": "America/Winnipeg",
        "iata": "YRT",
        "name": "Rankin Inlet Airport",
        "icao": "CYRT",
        "longitude": -92.1157989502
    },
    {
        "country": "Canada",
        "altitude": 1141,
        "dst": "A",
        "city": "Sudbury",
        "airportId": 133,
        "timezone": -5,
        "latitude": 46.625,
        "source": "OurAirports",
        "type": "airport",
        "tzDatabaseTimezone": "America/Toronto",
        "iata": "YSB",
        "name": "Sudbury Airport",
        "icao": "CYSB",
        "longitude": -80.79889678955078
    },
    {
        "country": "Canada",
        "altitude": 792,
        "dst": "A",
        "city": "Sherbrooke",
        "airportId": 134,
        "timezone": -5,
        "latitude": 45.4385986328125,
        "source": "OurAirports",
        "type": "airport",
        "tzDatabaseTimezone": "America/Toronto",
        "iata": "YSC",
        "name": "Sherbrooke Airport",
        "icao": "CYSC",
        "longitude": -71.69139862060547
    },
    {
        "country": "Canada",
        "altitude": 357,
        "dst": "A",
        "city": "St. John",
        "airportId": 135,
        "timezone": -4,
        "latitude": 45.31610107421875,
        "source": "OurAirports",
        "type": "airport",
        "tzDatabaseTimezone": "America/Halifax",
        "iata": "YSJ",
        "name": "Saint John Airport",
        "icao": "CYSJ",
        "longitude": -65.89029693603516
    },
    {
        "country": "Canada",
        "altitude": 671,
        "dst": "A",
        "city": "Fort Smith",
        "airportId": 136,
        "timezone": -7,
        "latitude": 60.020301818847656,
        "source": "OurAirports",
        "type": "airport",
        "tzDatabaseTimezone": "America/Edmonton",
        "iata": "YSM",
        "name": "Fort Smith Airport",
        "icao": "CYSM",
        "longitude": -111.96199798583984
    },
    {
        "country": "Canada",
        "altitude": 2106,
        "dst": "A",
        "city": "Nanisivik",
        "airportId": 137,
        "timezone": -5,
        "latitude": 72.982201,
        "source": "OurAirports",
        "type": "airport",
        "tzDatabaseTimezone": "America/Toronto",
        "iata": "YSR",
        "name": "Nanisivik Airport",
        "icao": "CYSR",
        "longitude": -84.613602
    },
    {
        "country": "Canada",
        "altitude": 56,
        "dst": "A",
        "city": "Summerside",
        "airportId": 138,
        "timezone": -4,
        "latitude": 46.44060134887695,
        "source": "OurAirports",
        "type": "airport",
        "tzDatabaseTimezone": "America/Halifax",
        "iata": "YSU",
        "name": "Summerside Airport",
        "icao": "CYSU",
        "longitude": -63.83359909057617
    },
    {
        "country": "Canada",
        "altitude": 282,
        "dst": "A",
        "city": "Sachs Harbour",
        "airportId": 139,
        "timezone": -7,
        "latitude": 71.9938964844,
        "source": "OurAirports",
        "type": "airport",
        "tzDatabaseTimezone": "America/Edmonton",
        "iata": "YSY",
        "name": "Sachs Harbour (David Nasogaluak Jr. Saaryuaq) Airport",
        "icao": "CYSY",
        "longitude": -125.242996216
    },
    {
        "country": "Canada",
        "altitude": 164,
        "dst": "A",
        "city": "Cape Dorset",
        "airportId": 140,
        "timezone": -5,
        "latitude": 64.2300033569,
        "source": "OurAirports",
        "type": "airport",
        "tzDatabaseTimezone": "America/Toronto",
        "iata": "YTE",
        "name": "Cape Dorset Airport",
        "icao": "CYTE",
        "longitude": -76.5267028809
    },
    {
        "country": "Canada",
        "altitude": 729,
        "dst": "A",
        "city": "Thompson",
        "airportId": 141,
        "timezone": -6,
        "latitude": 55.80110168457031,
        "source": "OurAirports",
        "type": "airport",
        "tzDatabaseTimezone": "America/Winnipeg",
        "iata": "YTH",
        "name": "Thompson Airport",
        "icao": "CYTH",
        "longitude": -97.86419677734375
    },
    {
        "country": "Canada",
        "altitude": 283,
        "dst": "A",
        "city": "Trenton",
        "airportId": 142,
        "timezone": -5,
        "latitude": 44.118900299072266,
        "source": "OurAirports",
        "type": "airport",
        "tzDatabaseTimezone": "America/Toronto",
        "iata": "YTR",
        "name": "CFB Trenton",
        "icao": "CYTR",
        "longitude": -77.5280990600586
    },
    {
        "country": "Canada",
        "altitude": 967,
        "dst": "A",
        "city": "Timmins",
        "airportId": 143,
        "timezone": -5,
        "latitude": 48.569698333699996,
        "source": "OurAirports",
        "type": "airport",
        "tzDatabaseTimezone": "America/Toronto",
        "iata": "YTS",
        "name": "Timmins/Victor M. Power",
        "icao": "CYTS",
        "longitude": -81.376701355
    },
    {
        "country": "Canada",
        "altitude": 252,
        "dst": "A",
        "city": "Toronto",
        "airportId": 144,
        "timezone": -5,
        "latitude": 43.627499,
        "source": "OurAirports",
        "type": "airport",
        "tzDatabaseTimezone": "America/Toronto",
        "iata": "YTZ",
        "name": "Billy Bishop Toronto City Centre Airport",
        "icao": "CYTZ",
        "longitude": -79.396202
    },
    {
        "country": "Canada",
        "altitude": 15,
        "dst": "A",
        "city": "Tuktoyaktuk",
        "airportId": 145,
        "timezone": -7,
        "latitude": 69.43329620361328,
        "source": "OurAirports",
        "type": "airport",
        "tzDatabaseTimezone": "America/Edmonton",
        "iata": "YUB",
        "name": "Tuktoyaktuk Airport",
        "icao": "CYUB",
        "longitude": -133.0260009765625
    },
    {
        "country": "Canada",
        "altitude": 118,
        "dst": "A",
        "city": "Montreal",
        "airportId": 146,
        "timezone": -5,
        "latitude": 45.4706001282,
        "source": "OurAirports",
        "type": "airport",
        "tzDatabaseTimezone": "America/Toronto",
        "iata": "YUL",
        "name": "Montreal / Pierre Elliott Trudeau International Airport",
        "icao": "CYUL",
        "longitude": -73.7407989502
    },
    {
        "country": "Canada",
        "altitude": 80,
        "dst": "A",
        "city": "Repulse Bay",
        "airportId": 147,
        "timezone": -6,
        "latitude": 66.5214004517,
        "source": "OurAirports",
        "type": "airport",
        "tzDatabaseTimezone": "America/Winnipeg",
        "iata": "YUT",
        "name": "Repulse Bay Airport",
        "icao": "CYUT",
        "longitude": -86.22470092770001
    },
    {
        "country": "Canada",
        "altitude": 30,
        "dst": "A",
        "city": "Hall Beach",
        "airportId": 148,
        "timezone": -5,
        "latitude": 68.77610015869999,
        "source": "OurAirports",
        "type": "airport",
        "tzDatabaseTimezone": "America/Toronto",
        "iata": "YUX",
        "name": "Hall Beach Airport",
        "icao": "CYUX",
        "longitude": -81.2425
    },
    {
        "country": "Canada",
        "altitude": 988,
        "dst": "A",
        "city": "Rouyn",
        "airportId": 149,
        "timezone": -5,
        "latitude": 48.20610046386719,
        "source": "OurAirports",
        "type": "airport",
        "tzDatabaseTimezone": "America/Toronto",
        "iata": "YUY",
        "name": "Rouyn Noranda Airport",
        "icao": "CYUY",
        "longitude": -78.83560180664062
    },
    {
        "country": "Canada",
        "altitude": 1242,
        "dst": "N",
        "city": "La Ronge",
        "airportId": 150,
        "timezone": -6,
        "latitude": 55.151401519800004,
        "source": "OurAirports",
        "type": "airport",
        "tzDatabaseTimezone": "America/Regina",
        "iata": "YVC",
        "name": "La Ronge Airport",
        "icao": "CYVC",
        "longitude": -105.262001038
    },
    {
        "country": "Canada",
        "altitude": 2025,
        "dst": "A",
        "city": "Vermillion",
        "airportId": 151,
        "timezone": -7,
        "latitude": 53.355800628699996,
        "source": "OurAirports",
        "type": "airport",
        "tzDatabaseTimezone": "America/Edmonton",
        "iata": "YVG",
        "name": "Vermilion Airport",
        "icao": "CYVG",
        "longitude": -110.823997498
    },
    {
        "country": "Canada",
        "altitude": 21,
        "dst": "A",
        "city": "Broughton Island",
        "airportId": 152,
        "timezone": -5,
        "latitude": 67.5457992554,
        "source": "OurAirports",
        "type": "airport",
        "tzDatabaseTimezone": "America/Toronto",
        "iata": "YVM",
        "name": "Qikiqtarjuaq Airport",
        "icao": "CYVM",
        "longitude": -64.03140258789999
    },
    {
        "country": "Canada",
        "altitude": 1107,
        "dst": "A",
        "city": "Val D'or",
        "airportId": 153,
        "timezone": -5,
        "latitude": 48.0532989502,
        "source": "OurAirports",
        "type": "airport",
        "tzDatabaseTimezone": "America/Toronto",
        "iata": "YVO",
        "name": "Val-d'Or Airport",
        "icao": "CYVO",
        "longitude": -77.7827987671
    },
    {
        "country": "Canada",
        "altitude": 129,
        "dst": "A",
        "city": "Quujjuaq",
        "airportId": 154,
        "timezone": -5,
        "latitude": 58.096099853515625,
        "source": "OurAirports",
        "type": "airport",
        "tzDatabaseTimezone": "America/Toronto",
        "iata": "YVP",
        "name": "Kuujjuaq Airport",
        "icao": "CYVP",
        "longitude": -68.4269027709961
    },
    {
        "country": "Canada",
        "altitude": 238,
        "dst": "A",
        "city": "Norman Wells",
        "airportId": 155,
        "timezone": -7,
        "latitude": 65.28160095214844,
        "source": "OurAirports",
        "type": "airport",
        "tzDatabaseTimezone": "America/Edmonton",
        "iata": "YVQ",
        "name": "Norman Wells Airport",
        "icao": "CYVQ",
        "longitude": -126.7979965209961
    },
    {
        "country": "Canada",
        "altitude": 14,
        "dst": "A",
        "city": "Vancouver",
        "airportId": 156,
        "timezone": -8,
        "latitude": 49.193901062,
        "source": "OurAirports",
        "type": "airport",
        "tzDatabaseTimezone": "America/Vancouver",
        "iata": "YVR",
        "name": "Vancouver International Airport",
        "icao": "CYVR",
        "longitude": -123.183998108
    },
    {
        "country": "Canada",
        "altitude": 1423,
        "dst": "N",
        "city": "Buffalo Narrows",
        "airportId": 157,
        "timezone": -6,
        "latitude": 55.8418998718,
        "source": "OurAirports",
        "type": "airport",
        "tzDatabaseTimezone": "America/Regina",
        "iata": "YVT",
        "name": "Buffalo Narrows Airport",
        "icao": "CYVT",
        "longitude": -108.417999268
    },
    {
        "country": "Canada",
        "altitude": 729,
        "dst": "A",
        "city": "Wiarton",
        "airportId": 158,
        "timezone": -5,
        "latitude": 44.7458,
        "source": "OurAirports",
        "type": "airport",
        "tzDatabaseTimezone": "America/Toronto",
        "iata": "YVV",
        "name": "Wiarton Airport",
        "icao": "CYVV",
        "longitude": -81.107201
    },
    {
        "country": "Canada",
        "altitude": 427,
        "dst": "A",
        "city": "Petawawa",
        "airportId": 159,
        "timezone": -5,
        "latitude": 45.95220184326172,
        "source": "OurAirports",
        "type": "airport",
        "tzDatabaseTimezone": "America/Toronto",
        "iata": "YWA",
        "name": "Petawawa Airport",
        "icao": "CYWA",
        "longitude": -77.31919860839844
    },
    {
        "country": "Canada",
        "altitude": 783,
        "dst": "A",
        "city": "Winnipeg",
        "airportId": 160,
        "timezone": -6,
        "latitude": 49.909999847399995,
        "source": "OurAirports",
        "type": "airport",
        "tzDatabaseTimezone": "America/Winnipeg",
        "iata": "YWG",
        "name": "Winnipeg / James Armstrong Richardson International Airport",
        "icao": "CYWG",
        "longitude": -97.2398986816
    },
    {
        "country": "Canada",
        "altitude": 1808,
        "dst": "A",
        "city": "Wabush",
        "airportId": 161,
        "timezone": -4,
        "latitude": 52.92190170288086,
        "source": "OurAirports",
        "type": "airport",
        "tzDatabaseTimezone": "America/Halifax",
        "iata": "YWK",
        "name": "Wabush Airport",
        "icao": "CYWK",
        "longitude": -66.8644027709961
    },
    {
        "country": "Canada",
        "altitude": 3085,
        "dst": "A",
        "city": "Williams Lake",
        "airportId": 162,
        "timezone": -8,
        "latitude": 52.1831016541,
        "source": "OurAirports",
        "type": "airport",
        "tzDatabaseTimezone": "America/Vancouver",
        "iata": "YWL",
        "name": "Williams Lake Airport",
        "icao": "CYWL",
        "longitude": -122.054000854
    },
    {
        "country": "Canada",
        "altitude": 489,
        "dst": "A",
        "city": "Wrigley",
        "airportId": 163,
        "timezone": -7,
        "latitude": 63.20940017700195,
        "source": "OurAirports",
        "type": "airport",
        "tzDatabaseTimezone": "America/Edmonton",
        "iata": "YWY",
        "name": "Wrigley Airport",
        "icao": "CYWY",
        "longitude": -123.43699645996094
    },
    {
        "country": "Canada",
        "altitude": 3082,
        "dst": "A",
        "city": "Cranbrook",
        "airportId": 164,
        "timezone": -7,
        "latitude": 49.610801696777,
        "source": "OurAirports",
        "type": "airport",
        "tzDatabaseTimezone": "America/Edmonton",
        "iata": "YXC",
        "name": "Cranbrook/Canadian Rockies International Airport",
        "icao": "CYXC",
        "longitude": -115.78199768066
    },
    {
        "country": "Canada",
        "altitude": 2202,
        "dst": "A",
        "city": "Edmonton",
        "airportId": 165,
        "timezone": -7,
        "latitude": 53.5724983215,
        "source": "OurAirports",
        "type": "airport",
        "tzDatabaseTimezone": "America/Edmonton",
        "iata": "YXD",
        "name": "Edmonton City Centre (Blatchford Field) Airport",
        "icao": "CYXD",
        "longitude": -113.521003723
    },
    {
        "country": "Canada",
        "altitude": 1653,
        "dst": "N",
        "city": "Saskatoon",
        "airportId": 166,
        "timezone": -6,
        "latitude": 52.170799255371094,
        "source": "OurAirports",
        "type": "airport",
        "tzDatabaseTimezone": "America/Regina",
        "iata": "YXE",
        "name": "Saskatoon John G. Diefenbaker International Airport",
        "icao": "CYXE",
        "longitude": -106.69999694824219
    },
    {
        "country": "Canada",
        "altitude": 2352,
        "dst": "A",
        "city": "Medicine Hat",
        "airportId": 167,
        "timezone": -7,
        "latitude": 50.01890182495117,
        "source": "OurAirports",
        "type": "airport",
        "tzDatabaseTimezone": "America/Edmonton",
        "iata": "YXH",
        "name": "Medicine Hat Airport",
        "icao": "CYXH",
        "longitude": -110.72100067138672
    },
    {
        "country": "Canada",
        "altitude": 2280,
        "dst": "A",
        "city": "Fort Saint John",
        "airportId": 168,
        "timezone": -7,
        "latitude": 56.23809814453125,
        "source": "OurAirports",
        "type": "airport",
        "tzDatabaseTimezone": "America/Dawson_Creek",
        "iata": "YXJ",
        "name": "Fort St John Airport",
        "icao": "CYXJ",
        "longitude": -120.73999786376953
    },
    {
        "country": "Canada",
        "altitude": 1258,
        "dst": "A",
        "city": "Sioux Lookout",
        "airportId": 169,
        "timezone": -6,
        "latitude": 50.11389923095703,
        "source": "OurAirports",
        "type": "airport",
        "tzDatabaseTimezone": "America/Winnipeg",
        "iata": "YXL",
        "name": "Sioux Lookout Airport",
        "icao": "CYXL",
        "longitude": -91.9052963256836
    },
    {
        "country": "Canada",
        "altitude": 75,
        "dst": "A",
        "city": "Pangnirtung",
        "airportId": 170,
        "timezone": -5,
        "latitude": 66.1449966431,
        "source": "OurAirports",
        "type": "airport",
        "tzDatabaseTimezone": "America/Toronto",
        "iata": "YXP",
        "name": "Pangnirtung Airport",
        "icao": "CYXP",
        "longitude": -65.71360015869999
    },
    {
        "country": "Canada",
        "altitude": 800,
        "dst": "A",
        "city": "Earlton",
        "airportId": 171,
        "timezone": -5,
        "latitude": 47.697400654599996,
        "source": "OurAirports",
        "type": "airport",
        "tzDatabaseTimezone": "America/Toronto",
        "iata": "YXR",
        "name": "Earlton (Timiskaming Regional) Airport",
        "icao": "CYXR",
        "longitude": -79.8473453522
    },
    {
        "country": "Canada",
        "altitude": 2267,
        "dst": "A",
        "city": "Prince George",
        "airportId": 172,
        "timezone": -8,
        "latitude": 53.8894004822,
        "source": "OurAirports",
        "type": "airport",
        "tzDatabaseTimezone": "America/Vancouver",
        "iata": "YXS",
        "name": "Prince George Airport",
        "icao": "CYXS",
        "longitude": -122.679000854
    },
    {
        "country": "Canada",
        "altitude": 713,
        "dst": "A",
        "city": "Terrace",
        "airportId": 173,
        "timezone": -8,
        "latitude": 54.468498,
        "source": "OurAirports",
        "type": "airport",
        "tzDatabaseTimezone": "America/Vancouver",
        "iata": "YXT",
        "name": "Northwest Regional Airport Terrace-Kitimat",
        "icao": "CYXT",
        "longitude": -128.576009
    },
    {
        "country": "Canada",
        "altitude": 912,
        "dst": "A",
        "city": "London",
        "airportId": 174,
        "timezone": -5,
        "latitude": 43.035599,
        "source": "OurAirports",
        "type": "airport",
        "tzDatabaseTimezone": "America/Toronto",
        "iata": "YXU",
        "name": "London Airport",
        "icao": "CYXU",
        "longitude": -81.1539
    },
    {
        "country": "Canada",
        "altitude": 195,
        "dst": "A",
        "city": "Abbotsford",
        "airportId": 175,
        "timezone": -8,
        "latitude": 49.025299072265625,
        "source": "OurAirports",
        "type": "airport",
        "tzDatabaseTimezone": "America/Vancouver",
        "iata": "YXX",
        "name": "Abbotsford Airport",
        "icao": "CYXX",
        "longitude": -122.36100006103516
    },
    {
        "country": "Canada",
        "altitude": 2317,
        "dst": "A",
        "city": "Whitehorse",
        "airportId": 176,
        "timezone": -8,
        "latitude": 60.7095985413,
        "source": "OurAirports",
        "type": "airport",
        "tzDatabaseTimezone": "America/Vancouver",
        "iata": "YXY",
        "name": "Whitehorse / Erik Nielsen International Airport",
        "icao": "CYXY",
        "longitude": -135.067001343
    },
    {
        "country": "Canada",
        "altitude": 1215,
        "dst": "A",
        "city": "North Bay",
        "airportId": 177,
        "timezone": -5,
        "latitude": 46.363602,
        "source": "OurAirports",
        "type": "airport",
        "tzDatabaseTimezone": "America/Toronto",
        "iata": "YYB",
        "name": "North Bay Jack Garland Airport",
        "icao": "CYYB",
        "longitude": -79.422798
    },
    {
        "country": "Canada",
        "altitude": 3557,
        "dst": "A",
        "city": "Calgary",
        "airportId": 178,
        "timezone": -7,
        "latitude": 51.113899231,
        "source": "OurAirports",
        "type": "airport",
        "tzDatabaseTimezone": "America/Edmonton",
        "iata": "YYC",
        "name": "Calgary International Airport",
        "icao": "CYYC",
        "longitude": -114.019996643
    },
    {
        "country": "Canada",
        "altitude": 1712,
        "dst": "A",
        "city": "Smithers",
        "airportId": 179,
        "timezone": -8,
        "latitude": 54.82469940185547,
        "source": "OurAirports",
        "type": "airport",
        "tzDatabaseTimezone": "America/Vancouver",
        "iata": "YYD",
        "name": "Smithers Airport",
        "icao": "CYYD",
        "longitude": -127.18299865722656
    },
    {
        "country": "Canada",
        "altitude": 1253,
        "dst": "A",
        "city": "Fort Nelson",
        "airportId": 180,
        "timezone": -8,
        "latitude": 58.8363990784,
        "source": "OurAirports",
        "type": "airport",
        "tzDatabaseTimezone": "America/Vancouver",
        "iata": "YYE",
        "name": "Fort Nelson Airport",
        "icao": "CYYE",
        "longitude": -122.597000122
    },
    {
        "country": "Canada",
        "altitude": 1129,
        "dst": "A",
        "city": "Penticton",
        "airportId": 181,
        "timezone": -8,
        "latitude": 49.46310043334961,
        "source": "OurAirports",
        "type": "airport",
        "tzDatabaseTimezone": "America/Vancouver",
        "iata": "YYF",
        "name": "Penticton Airport",
        "icao": "CYYF",
        "longitude": -119.60199737548828
    },
    {
        "country": "Canada",
        "altitude": 160,
        "dst": "A",
        "city": "Charlottetown",
        "airportId": 182,
        "timezone": -4,
        "latitude": 46.290000915527344,
        "source": "OurAirports",
        "type": "airport",
        "tzDatabaseTimezone": "America/Halifax",
        "iata": "YYG",
        "name": "Charlottetown Airport",
        "icao": "CYYG",
        "longitude": -63.12110137939453
    },
    {
        "country": "Canada",
        "altitude": 92,
        "dst": "A",
        "city": "Spence Bay",
        "airportId": 183,
        "timezone": -7,
        "latitude": 69.5466995239,
        "source": "OurAirports",
        "type": "airport",
        "tzDatabaseTimezone": "America/Edmonton",
        "iata": "YYH",
        "name": "Taloyoak Airport",
        "icao": "CYYH",
        "longitude": -93.5766983032
    },
    {
        "country": "Canada",
        "altitude": 63,
        "dst": "A",
        "city": "Victoria",
        "airportId": 184,
        "timezone": -8,
        "latitude": 48.646900177,
        "source": "OurAirports",
        "type": "airport",
        "tzDatabaseTimezone": "America/Vancouver",
        "iata": "YYJ",
        "name": "Victoria International Airport",
        "icao": "CYYJ",
        "longitude": -123.426002502
    },
    {
        "country": "Canada",
        "altitude": 1170,
        "dst": "A",
        "city": "Lynn Lake",
        "airportId": 185,
        "timezone": -6,
        "latitude": 56.86389923095703,
        "source": "OurAirports",
        "type": "airport",
        "tzDatabaseTimezone": "America/Winnipeg",
        "iata": "YYL",
        "name": "Lynn Lake Airport",
        "icao": "CYYL",
        "longitude": -101.07599639892578
    },
    {
        "country": "Canada",
        "altitude": 2680,
        "dst": "N",
        "city": "Swift Current",
        "airportId": 186,
        "timezone": -6,
        "latitude": 50.291900634799994,
        "source": "OurAirports",
        "type": "airport",
        "tzDatabaseTimezone": "America/Regina",
        "iata": "YYN",
        "name": "Swift Current Airport",
        "icao": "CYYN",
        "longitude": -107.691001892
    },
    {
        "country": "Canada",
        "altitude": 94,
        "dst": "A",
        "city": "Churchill",
        "airportId": 187,
        "timezone": -6,
        "latitude": 58.739200592041016,
        "source": "OurAirports",
        "type": "airport",
        "tzDatabaseTimezone": "America/Winnipeg",
        "iata": "YYQ",
        "name": "Churchill Airport",
        "icao": "CYYQ",
        "longitude": -94.06500244140625
    },
    {
        "country": "Canada",
        "altitude": 160,
        "dst": "A",
        "city": "Goose Bay",
        "airportId": 188,
        "timezone": -4,
        "latitude": 53.3191986084,
        "source": "OurAirports",
        "type": "airport",
        "tzDatabaseTimezone": "America/Halifax",
        "iata": "YYR",
        "name": "Goose Bay Airport",
        "icao": "CYYR",
        "longitude": -60.4258003235
    },
    {
        "country": "Canada",
        "altitude": 461,
        "dst": "A",
        "city": "St. John's",
        "airportId": 189,
        "timezone": -3.5,
        "latitude": 47.618598938,
        "source": "OurAirports",
        "type": "airport",
        "tzDatabaseTimezone": "America/St_Johns",
        "iata": "YYT",
        "name": "St. John's International Airport",
        "icao": "CYYT",
        "longitude": -52.7518997192
    },
    {
        "country": "Canada",
        "altitude": 743,
        "dst": "A",
        "city": "Kapuskasing",
        "airportId": 190,
        "timezone": -5,
        "latitude": 49.41389846801758,
        "source": "OurAirports",
        "type": "airport",
        "tzDatabaseTimezone": "America/Toronto",
        "iata": "YYU",
        "name": "Kapuskasing Airport",
        "icao": "CYYU",
        "longitude": -82.46749877929688
    },
    {
        "country": "Canada",
        "altitude": 1058,
        "dst": "A",
        "city": "Armstrong",
        "airportId": 191,
        "timezone": -5,
        "latitude": 50.29029846191406,
        "source": "OurAirports",
        "type": "airport",
        "tzDatabaseTimezone": "America/Toronto",
        "iata": "YYW",
        "name": "Armstrong Airport",
        "icao": "CYYW",
        "longitude": -88.90969848632812
    },
    {
        "country": "Canada",
        "altitude": 172,
        "dst": "A",
        "city": "Mont Joli",
        "airportId": 192,
        "timezone": -5,
        "latitude": 48.60860061645508,
        "source": "OurAirports",
        "type": "airport",
        "tzDatabaseTimezone": "America/Toronto",
        "iata": "YYY",
        "name": "Mont Joli Airport",
        "icao": "CYYY",
        "longitude": -68.20809936523438
    },
    {
        "country": "Canada",
        "altitude": 569,
        "dst": "A",
        "city": "Toronto",
        "airportId": 193,
        "timezone": -5,
        "latitude": 43.6772003174,
        "source": "OurAirports",
        "type": "airport",
        "tzDatabaseTimezone": "America/Toronto",
        "iata": "YYZ",
        "name": "Lester B. Pearson International Airport",
        "icao": "CYYZ",
        "longitude": -79.63059997559999
    },
    {
        "country": "Canada",
        "altitude": 652,
        "dst": "A",
        "city": "Toronto",
        "airportId": 194,
        "timezone": -5,
        "latitude": 43.74250030517578,
        "source": "OurAirports",
        "type": "airport",
        "tzDatabaseTimezone": "America/Toronto",
        "iata": "YZD",
        "name": "Downsview Airport",
        "icao": "CYZD",
        "longitude": -79.4655990600586
    },
    {
        "country": "Canada",
        "altitude": 635,
        "dst": "A",
        "city": "Gore Bay",
        "airportId": 195,
        "timezone": -5,
        "latitude": 45.88529968261719,
        "source": "OurAirports",
        "type": "airport",
        "tzDatabaseTimezone": "America/Toronto",
        "iata": "YZE",
        "name": "Gore Bay Manitoulin Airport",
        "icao": "CYZE",
        "longitude": -82.56780242919922
    },
    {
        "country": "Canada",
        "altitude": 675,
        "dst": "A",
        "city": "Yellowknife",
        "airportId": 196,
        "timezone": -7,
        "latitude": 62.462799072265625,
        "source": "OurAirports",
        "type": "airport",
        "tzDatabaseTimezone": "America/Edmonton",
        "iata": "YZF",
        "name": "Yellowknife Airport",
        "icao": "CYZF",
        "longitude": -114.44000244140625
    },
    {
        "country": "Canada",
        "altitude": 1912,
        "dst": "A",
        "city": "Slave Lake",
        "airportId": 197,
        "timezone": -7,
        "latitude": 55.2930984497,
        "source": "OurAirports",
        "type": "airport",
        "tzDatabaseTimezone": "America/Edmonton",
        "iata": "YZH",
        "name": "Slave Lake Airport",
        "icao": "CYZH",
        "longitude": -114.777000427
    },
    {
        "country": "Canada",
        "altitude": 21,
        "dst": "A",
        "city": "Sandspit",
        "airportId": 198,
        "timezone": -8,
        "latitude": 53.25429916379999,
        "source": "OurAirports",
        "type": "airport",
        "tzDatabaseTimezone": "America/Vancouver",
        "iata": "YZP",
        "name": "Sandspit Airport",
        "icao": "CYZP",
        "longitude": -131.813995361
    },
    {
        "country": "Canada",
        "altitude": 594,
        "dst": "A",
        "city": "Sarnia",
        "airportId": 199,
        "timezone": -5,
        "latitude": 42.9994010925293,
        "source": "OurAirports",
        "type": "airport",
        "tzDatabaseTimezone": "America/Toronto",
        "iata": "YZR",
        "name": "Chris Hadfield Airport",
        "icao": "CYZR",
        "longitude": -82.30889892578125
    },
    {
        "country": "Canada",
        "altitude": 71,
        "dst": "A",
        "city": "Port Hardy",
        "airportId": 200,
        "timezone": -8,
        "latitude": 50.680599212646484,
        "source": "OurAirports",
        "type": "airport",
        "tzDatabaseTimezone": "America/Vancouver",
        "iata": "YZT",
        "name": "Port Hardy Airport",
        "icao": "CYZT",
        "longitude": -127.36699676513672
    },
    {
        "country": "Canada",
        "altitude": 2567,
        "dst": "A",
        "city": "Whitecourt",
        "airportId": 201,
        "timezone": -7,
        "latitude": 54.14390182495117,
        "source": "OurAirports",
        "type": "airport",
        "tzDatabaseTimezone": "America/Edmonton",
        "iata": "YZU",
        "name": "Whitecourt Airport",
        "icao": "CYZU",
        "longitude": -115.78700256347656
    },
    {
        "country": "Canada",
        "altitude": 180,
        "dst": "A",
        "city": "Sept-iles",
        "airportId": 202,
        "timezone": -5,
        "latitude": 50.22330093383789,
        "source": "OurAirports",
        "type": "airport",
        "tzDatabaseTimezone": "America/Toronto",
        "iata": "YZV",
        "name": "Sept-Îles Airport",
        "icao": "CYZV",
        "longitude": -66.2656021118164
    },
    {
        "country": "Canada",
        "altitude": 2313,
        "dst": "A",
        "city": "Teslin",
        "airportId": 203,
        "timezone": -8,
        "latitude": 60.17279815673828,
        "source": "OurAirports",
        "type": "airport",
        "tzDatabaseTimezone": "America/Vancouver",
        "iata": "YZW",
        "name": "Teslin Airport",
        "icao": "CYZW",
        "longitude": -132.7429962158203
    },
    {
        "country": "Canada",
        "altitude": 92,
        "dst": "A",
        "city": "Greenwood",
        "airportId": 204,
        "timezone": -4,
        "latitude": 44.98440170288086,
        "source": "OurAirports",
        "type": "airport",
        "tzDatabaseTimezone": "America/Halifax",
        "iata": "YZX",
        "name": "CFB Greenwood",
        "icao": "CYZX",
        "longitude": -64.91690063476562
    },
    {
        "country": "Canada",
        "altitude": 2351,
        "dst": "A",
        "city": "Faro",
        "airportId": 205,
        "timezone": -8,
        "latitude": 62.20750045776367,
        "source": "OurAirports",
        "type": "airport",
        "tzDatabaseTimezone": "America/Vancouver",
        "iata": "ZFA",
        "name": "Faro Airport",
        "icao": "CZFA",
        "longitude": -133.37600708007812
    },
    {
        "country": "Canada",
        "altitude": 116,
        "dst": "A",
        "city": "Fort Mcpherson",
        "airportId": 206,
        "timezone": -7,
        "latitude": 67.40750122070312,
        "source": "OurAirports",
        "type": "airport",
        "tzDatabaseTimezone": "America/Edmonton",
        "iata": "ZFM",
        "name": "Fort Mcpherson Airport",
        "icao": "CZFM",
        "longitude": -134.86099243164062
    },
    {
        "country": "Algeria",
        "altitude": 535,
        "dst": "N",
        "city": "Blida",
        "airportId": 207,
        "timezone": 1,
        "latitude": 36.50360107421875,
        "source": "OurAirports",
        "type": "airport",
        "tzDatabaseTimezone": "Africa/Algiers",
        "iata": "QLD",
        "name": "Blida Airport",
        "icao": "DAAB",
        "longitude": 2.8141698837280273
    },
    {
        "country": "Algeria",
        "altitude": 1506,
        "dst": "N",
        "city": "Bou Saada",
        "airportId": 208,
        "timezone": 1,
        "latitude": 35.33250045776367,
        "source": "OurAirports",
        "type": "airport",
        "tzDatabaseTimezone": "Africa/Algiers",
        "iata": "BUJ",
        "name": "Bou Saada Airport",
        "icao": "DAAD",
        "longitude": 4.206389904022217
    },
    {
        "country": "Algeria",
        "altitude": 20,
        "dst": "N",
        "city": "Bejaja",
        "airportId": 209,
        "timezone": 1,
        "latitude": 36.7120018005,
        "source": "OurAirports",
        "type": "airport",
        "tzDatabaseTimezone": "Africa/Algiers",
        "iata": "BJA",
        "name": "Soummam Airport",
        "icao": "DAAE",
        "longitude": 5.0699200630200005
    },
    {
        "country": "Algeria",
        "altitude": 82,
        "dst": "N",
        "city": "Algier",
        "airportId": 210,
        "timezone": 1,
        "latitude": 36.691001892089844,
        "source": "OurAirports",
        "type": "airport",
        "tzDatabaseTimezone": "Africa/Algiers",
        "iata": "ALG",
        "name": "Houari Boumediene Airport",
        "icao": "DAAG",
        "longitude": 3.215409994125366
    },
    {
        "country": "Algeria",
        "altitude": 3176,
        "dst": "N",
        "city": "Djanet",
        "airportId": 211,
        "timezone": 1,
        "latitude": 24.292801,
        "source": "OurAirports",
        "type": "airport",
        "tzDatabaseTimezone": "Africa/Algiers",
        "iata": "DJG",
        "name": "Djanet Inedbirene Airport",
        "icao": "DAAJ",
        "longitude": 9.45244
    },
    {
        "country": "Algeria",
        "altitude": 335,
        "dst": "N",
        "city": "Boufarik",
        "airportId": 212,
        "timezone": 1,
        "latitude": 36.545799,
        "source": "OurAirports",
        "type": "airport",
        "tzDatabaseTimezone": "Africa/Algiers",
        "iata": null,
        "name": "Boufarik Airport",
        "icao": "DAAK",
        "longitude": 2.87611
    },
    {
        "country": "Algeria",
        "altitude": 955,
        "dst": "N",
        "city": "Reggan",
        "airportId": 213,
        "timezone": 1,
        "latitude": 26.7101,
        "source": "OurAirports",
        "type": "airport",
        "tzDatabaseTimezone": "Africa/Algiers",
        "iata": null,
        "name": "Reggane Airport",
        "icao": "DAAN",
        "longitude": 0.285647
    },
    {
        "country": "Algeria",
        "altitude": 1778,
        "dst": "N",
        "city": "Illizi",
        "airportId": 214,
        "timezone": 1,
        "latitude": 26.7234992981,
        "source": "OurAirports",
        "type": "airport",
        "tzDatabaseTimezone": "Africa/Algiers",
        "iata": "VVZ",
        "name": "Illizi Takhamalt Airport",
        "icao": "DAAP",
        "longitude": 8.62265014648
    },
    {
        "country": "Algeria",
        "altitude": 2132,
        "dst": "N",
        "city": "Ain Oussera",
        "airportId": 215,
        "timezone": 1,
        "latitude": 35.52539825439453,
        "source": "OurAirports",
        "type": "airport",
        "tzDatabaseTimezone": "Africa/Algiers",
        "iata": null,
        "name": "Ain Oussera Airport",
        "icao": "DAAQ",
        "longitude": 2.8787100315093994
    },
    {
        "country": "Algeria",
        "altitude": 4518,
        "dst": "N",
        "city": "Tamanrasset",
        "airportId": 216,
        "timezone": 1,
        "latitude": 22.8115005493,
        "source": "OurAirports",
        "type": "airport",
        "tzDatabaseTimezone": "Africa/Algiers",
        "iata": "TMR",
        "name": "Aguenar \u2013 Hadj Bey Akhamok Airport",
        "icao": "DAAT",
        "longitude": 5.45107984543
    },
    {
        "country": "Algeria",
        "altitude": 36,
        "dst": "N",
        "city": "Jijel",
        "airportId": 217,
        "timezone": 1,
        "latitude": 36.7951011658,
        "source": "OurAirports",
        "type": "airport",
        "tzDatabaseTimezone": "Africa/Algiers",
        "iata": "GJL",
        "name": "Jijel Ferhat Abbas Airport",
        "icao": "DAAV",
        "longitude": 5.87361001968
    },
    {
        "country": "Algeria",
        "altitude": 3855,
        "dst": "N",
        "city": "Mecheria",
        "airportId": 218,
        "timezone": 1,
        "latitude": 33.535900116,
        "source": "OurAirports",
        "type": "airport",
        "tzDatabaseTimezone": "Africa/Algiers",
        "iata": "MZW",
        "name": "Mecheria Airport",
        "icao": "DAAY",
        "longitude": -0.242353007197
    },
    {
        "country": "Algeria",
        "altitude": 282,
        "dst": "N",
        "city": "Relizane",
        "airportId": 219,
        "timezone": 1,
        "latitude": 35.752201,
        "source": "OurAirports",
        "type": "airport",
        "tzDatabaseTimezone": "Africa/Algiers",
        "iata": null,
        "name": "Relizane Airport",
        "icao": "DAAZ",
        "longitude": 0.626272
    },
    {
        "country": "Algeria",
        "altitude": 16,
        "dst": "N",
        "city": "Annaba",
        "airportId": 220,
        "timezone": 1,
        "latitude": 36.822201,
        "source": "OurAirports",
        "type": "airport",
        "tzDatabaseTimezone": "Africa/Algiers",
        "iata": "AAE",
        "name": "Rabah Bitat Airport",
        "icao": "DABB",
        "longitude": 7.809174
    },
    {
        "country": "Algeria",
        "altitude": 2265,
        "dst": "N",
        "city": "Constantine",
        "airportId": 221,
        "timezone": 1,
        "latitude": 36.2760009765625,
        "source": "OurAirports",
        "type": "airport",
        "tzDatabaseTimezone": "Africa/Algiers",
        "iata": "CZL",
        "name": "Mohamed Boudiaf International Airport",
        "icao": "DABC",
        "longitude": 6.620389938354492
    },
    {
        "country": "Algeria",
        "altitude": 2661,
        "dst": "N",
        "city": "Tebessa",
        "airportId": 222,
        "timezone": 1,
        "latitude": 35.4315986633,
        "source": "OurAirports",
        "type": "airport",
        "tzDatabaseTimezone": "Africa/Algiers",
        "iata": "TEE",
        "name": "Cheikh Larbi Tébessi Airport",
        "icao": "DABS",
        "longitude": 8.12071990967
    },
    {
        "country": "Algeria",
        "altitude": 2540,
        "dst": "N",
        "city": "Tilrempt",
        "airportId": 224,
        "timezone": 1,
        "latitude": 32.93040084838867,
        "source": "OurAirports",
        "type": "airport",
        "tzDatabaseTimezone": "Africa/Algiers",
        "iata": "HRM",
        "name": "Hassi R'Mel Airport",
        "icao": "DAFH",
        "longitude": 3.311539888381958
    },
    {
        "country": "Algeria",
        "altitude": 3245,
        "dst": "N",
        "city": "Tiaret",
        "airportId": 225,
        "timezone": 1,
        "latitude": 35.3410987854,
        "source": "OurAirports",
        "type": "airport",
        "tzDatabaseTimezone": "Africa/Algiers",
        "iata": "TID",
        "name": "Bou Chekif Airport",
        "icao": "DAOB",
        "longitude": 1.46315002441
    },
    {
        "country": "Algeria",
        "altitude": 187,
        "dst": "N",
        "city": "Bou Sfer",
        "airportId": 226,
        "timezone": 1,
        "latitude": 35.73540115356445,
        "source": "OurAirports",
        "type": "airport",
        "tzDatabaseTimezone": "Africa/Algiers",
        "iata": null,
        "name": "Bou Sfer Airport",
        "icao": "DAOE",
        "longitude": -0.8053889870643616
    },
    {
        "country": "Algeria",
        "altitude": 1453,
        "dst": "N",
        "city": "Tindouf",
        "airportId": 227,
        "timezone": 1,
        "latitude": 27.7003993988,
        "source": "OurAirports",
        "type": "airport",
        "tzDatabaseTimezone": "Africa/Algiers",
        "iata": "TIN",
        "name": "Tindouf Airport",
        "icao": "DAOF",
        "longitude": -8.167099952700001
    },
    {
        "country": "Algeria",
        "altitude": 463,
        "dst": "N",
        "city": "Ech-cheliff",
        "airportId": 228,
        "timezone": 1,
        "latitude": 36.2126998901,
        "source": "OurAirports",
        "type": "airport",
        "tzDatabaseTimezone": "Africa/Algiers",
        "iata": "CFK",
        "name": "Ech Cheliff Airport",
        "icao": "DAOI",
        "longitude": 1.33176994324
    },
    {
        "country": "Algeria",
        "altitude": 367,
        "dst": "N",
        "city": "Oran",
        "airportId": 229,
        "timezone": 1,
        "latitude": 35.54240036010742,
        "source": "OurAirports",
        "type": "airport",
        "tzDatabaseTimezone": "Africa/Algiers",
        "iata": "TAF",
        "name": "Tafaraoui Airport",
        "icao": "DAOL",
        "longitude": -0.5322780013084412
    },